"city","lon","lat"
"Sabadell",2.11719,41.54433
"Grenoble",5.727029,45.1595
"Bodrum",27.43014,37.03288
"Göteborg",11.95706,57.716892
"Koszalin",16.1802,54.19068
"Malmö",13.01094,55.58297
"Oslo",10.75326,59.90705
